{
"type": "FeatureCollection",
"crs": { "type": "name", "properties": { "name": "urn:ogc:def:crs:OGC:1.3:CRS84" } },
                                                                                
"features": [
{ "type": "Feature", "properties": { "name": "Aachen", "code": "EGTS", "region": "East Gaulish" }, "geometry": { "type": "Point", "coordinates": [ 6.1, 50.7667 ] } },
{ "type": "Feature", "properties": { "name": "Abella", "code": "SPTS", "region": "Spanish" }, "geometry": { "type": "Point", "coordinates": [ 2.31667, 42.3167 ] } },
{ "type": "Feature", "properties": { "name": "Abella", "code": "SPTS", "region": "Spanish" }, "geometry": { "type": "Point", "coordinates": [ 2.31667, 42.3167 ] } },
{ "type": "Feature", "properties": { "name": "Altenstadt", "code": "", "region": "" }, "geometry": { "type": "Point", "coordinates": [ 7.96667, 49.0333 ] } },
{ "type": "Feature", "properties": { "name": "Ampurias", "code": "ITTS", "region": "Italian-type" }, "geometry": { "type": "Point", "coordinates": [ 3.11667, 42.1333 ] } },
{ "type": "Feature", "properties": { "name": "Andújar", "code": "SPTS", "region": "Spanish" }, "geometry": { "type": "Point", "coordinates": [ -4.06667, 38.05 ] } },
{ "type": "Feature", "properties": { "name": "Arenzana de Abajo", "code": "SPTS", "region": "Spanish" }, "geometry": { "type": "Point", "coordinates": [ -2.71667, 42.3833 ] } },
{ "type": "Feature", "properties": { "name": "Arenzana de Arriba", "code": "SPTS", "region": "Spanish" }, "geometry": { "type": "Point", "coordinates": [ -2.68333, 42.3833 ] } },
{ "type": "Feature", "properties": { "name": "Arezzo", "code": "ITTS", "region": "Italian" }, "geometry": { "type": "Point", "coordinates": [ 11.88, 43.464 ] } },
{ "type": "Feature", "properties": { "name": "Aspiran", "code": "SGTS", "region": "South Gaulish" }, "geometry": { "type": "Point", "coordinates": [ 3.43333, 43.5667 ] } },
{ "type": "Feature", "properties": { "name": "Avenches", "code": "EGTS", "region": "East Gaulish" }, "geometry": { "type": "Point", "coordinates": [ 7.05, 46.8833 ] } },
{ "type": "Feature", "properties": { "name": "Avocourt", "code": "ARGO", "region": "Argonne" }, "geometry": { "type": "Point", "coordinates": [ 5.15, 49.2 ] } },
{ "type": "Feature", "properties": { "name": "Baden", "code": "EGTS", "region": "East Gaulish" }, "geometry": { "type": "Point", "coordinates": [ 8.3, 47.4667 ] } },
{ "type": "Feature", "properties": { "name": "Banassac", "code": "SGTS", "region": "South Gaulish" }, "geometry": { "type": "Point", "coordinates": [ 3.2, 44.4333 ] } },
{ "type": "Feature", "properties": { "name": "Baños de Río Tobía", "code": "SPTS", "region": "Spanish" }, "geometry": { "type": "Point", "coordinates": [ -2.75, 42.3333 ] } },
{ "type": "Feature", "properties": { "name": "Beinstein", "code": "", "region": "" }, "geometry": { "type": "Point", "coordinates": [ 9.35, 48.8167 ] } },
{ "type": "Feature", "properties": { "name": "Berne", "code": "EGTS", "region": "East Gaulish" }, "geometry": { "type": "Point", "coordinates": [ 7.46667, 46.9167 ] } },
{ "type": "Feature", "properties": { "name": "Bezares", "code": "SPTS", "region": "Spanish" }, "geometry": { "type": "Point", "coordinates": [ -2.66667, 42.3667 ] } },
{ "type": "Feature", "properties": { "name": "Blickweiler", "code": "EGTS", "region": "East Gaulish" }, "geometry": { "type": "Point", "coordinates": [ 7.25, 49.2167 ] } },
{ "type": "Feature", "properties": { "name": "Bliesbruck", "code": "EGTS", "region": "East Gaulish" }, "geometry": { "type": "Point", "coordinates": [ 7.18333, 49.116677 ] } },
{ "type": "Feature", "properties": { "name": "Bobadilla", "code": "SPTS", "region": "Spanish" }, "geometry": { "type": "Point", "coordinates": [ -2.75, 42.3167 ] } },
{ "type": "Feature", "properties": { "name": "Boucheporn", "code": "EGTS", "region": "East Gaulish" }, "geometry": { "type": "Point", "coordinates": [ 6.6, 49.15 ] } },
{ "type": "Feature", "properties": { "name": "Bourgheim", "code": "EGTS", "region": "East Gaulish" }, "geometry": { "type": "Point", "coordinates": [ 7.48333, 48.4167 ] } },
{ "type": "Feature", "properties": { "name": "Bram", "code": "SGTS", "region": "South Gaulish" }, "geometry": { "type": "Point", "coordinates": [ 2.11667, 43.25 ] } },
{ "type": "Feature", "properties": { "name": "Bronchales", "code": "SPTS", "region": "Spanish" }, "geometry": { "type": "Point", "coordinates": [ -1.58333, 40.5167 ] } },
{ "type": "Feature", "properties": { "name": "Cales", "code": "ITTS", "region": "Italian" }, "geometry": { "type": "Point", "coordinates": [ 14.86524, 41.07162 ] } },
{ "type": "Feature", "properties": { "name": "Camproviín", "code": "SPTS", "region": "Spanish" }, "geometry": { "type": "Point", "coordinates": [ -2.71667, 42.35 ] } },
{ "type": "Feature", "properties": { "name": "Carrade", "code": "SGTS", "region": "South Gaulish" }, "geometry": { "type": "Point", "coordinates": [ 1.85, 44.4833 ] } },
{ "type": "Feature", "properties": { "name": "Chémery", "code": "EGTS", "region": "East Gaulish" }, "geometry": { "type": "Point", "coordinates": [ 6.50833, 49.15 ] } },
{ "type": "Feature", "properties": { "name": "Cincelli", "code": "ITTS", "region": "Italian" }, "geometry": { "type": "Point", "coordinates": [ 11.7985, 43.5117 ] } },
{ "type": "Feature", "properties": { "name": "Clermont-en-Argonne", "code": "ARGO", "region": "Argonne" }, "geometry": { "type": "Point", "coordinates": [ 5.06667, 49.1 ] } },
{ "type": "Feature", "properties": { "name": "Colchester", "code": "COTS", "region": "British" }, "geometry": { "type": "Point", "coordinates": [ 0.9, 51.8833 ] } },
{ "type": "Feature", "properties": { "name": "Corella", "code": "SPTS", "region": "Spanish" }, "geometry": { "type": "Point", "coordinates": [ -1.78333, 42.1167 ] } },
{ "type": "Feature", "properties": { "name": "Cornella' de Terri", "code": "SPTS", "region": "Spanish" }, "geometry": { "type": "Point", "coordinates": [ 2.81667, 42.0833 ] } },
{ "type": "Feature", "properties": { "name": "Cournon", "code": "CGTS", "region": "Central Gaulish" }, "geometry": { "type": "Point", "coordinates": [ 3.2166667, 45.75 ] } },
{ "type": "Feature", "properties": { "name": "Courpière", "code": "CGTS", "region": "Central Gaulish" }, "geometry": { "type": "Point", "coordinates": [ 3.55, 45.75 ] } },
{ "type": "Feature", "properties": { "name": "Covarrubias", "code": "SPTS", "region": "Spanish" }, "geometry": { "type": "Point", "coordinates": [ -3.51667, 42.0667 ] } },
{ "type": "Feature", "properties": { "name": "Crambade", "code": "SGTS", "region": "South Gaulish" }, "geometry": { "type": "Point", "coordinates": [ 1.91667, 43.9 ] } },
{ "type": "Feature", "properties": { "name": "Eincheville-le-Tenig", "code": "EGTS", "region": "East Gaulish" }, "geometry": { "type": "Point", "coordinates": [ 6.73333, 48.9833 ] } },
{ "type": "Feature", "properties": { "name": "Eschweiler Hof", "code": "EGTS", "region": "East Gaulish" }, "geometry": { "type": "Point", "coordinates": [ 7.2, 49.3 ] } },
{ "type": "Feature", "properties": { "name": "Espalion", "code": "SGTS", "region": "South Gaulish" }, "geometry": { "type": "Point", "coordinates": [ 2.76667, 44.5167 ] } },
{ "type": "Feature", "properties": { "name": "Estollo", "code": "SPTS", "region": "Spanish" }, "geometry": { "type": "Point", "coordinates": [ -2.85, 42.3333 ] } },
{ "type": "Feature", "properties": { "name": "Grenade", "code": "SPTS", "region": "Spanish" }, "geometry": { "type": "Point", "coordinates": [ -3.425, 37.2167 ] } },
{ "type": "Feature", "properties": { "name": "Gueugnon", "code": "CGTS", "region": "Central Gaulish" }, "geometry": { "type": "Point", "coordinates": [ 4.06667, 46.6 ] } },
{ "type": "Feature", "properties": { "name": "Haltern in Westfalen", "code": "ITTS", "region": "Italian-type" }, "geometry": { "type": "Point", "coordinates": [ 7.18333, 51.7333 ] } },
{ "type": "Feature", "properties": { "name": "Haute-Yutz", "code": "EGTS", "region": "East Gaulish" }, "geometry": { "type": "Point", "coordinates": [ 6.2, 49.35 ] } },
{ "type": "Feature", "properties": { "name": "Heiligenberg", "code": "EGTS", "region": "East Gaulish" }, "geometry": { "type": "Point", "coordinates": [ 7.4, 48.5333 ] } },
{ "type": "Feature", "properties": { "name": "Herrera de Pisuerga", "code": "ITTS", "region": "Italian-type" }, "geometry": { "type": "Point", "coordinates": [ -4.33333, 42.6 ] } },
{ "type": "Feature", "properties": { "name": "Horbourg", "code": "EGTS", "region": "East Gaulish" }, "geometry": { "type": "Point", "coordinates": [ 7.38333, 48.0833 ] } },
{ "type": "Feature", "properties": { "name": "Ittenwiller", "code": "EGTS", "region": "East Gaulish" }, "geometry": { "type": "Point", "coordinates": [ 7.45, 48.4 ] } },
{ "type": "Feature", "properties": { "name": "Jaulges­-Villiers-­Vineux", "code": "EGTS", "region": "East Gaulish" }, "geometry": { "type": "Point", "coordinates": [ 3.81667, 47.9333 ] } },
{ "type": "Feature", "properties": { "name": "Jebsheim", "code": "", "region": "" }, "geometry": { "type": "Point", "coordinates": [ 7.48333, 48.1167 ] } },
{ "type": "Feature", "properties": { "name": "Jonquières", "code": "SGTS", "region": "South Gaulish" }, "geometry": { "type": "Point", "coordinates": [ 3.46667, 43.6833 ] } },
{ "type": "Feature", "properties": { "name": "Koenigshofen", "code": "EGTS", "region": "East Gaulish" }, "geometry": { "type": "Point", "coordinates": [ 7.68333, 48.5667 ] } },
{ "type": "Feature", "properties": { "name": "Kräherwald", "code": "EGTS", "region": "East Gaulish" }, "geometry": { "type": "Point", "coordinates": [ 9.15, 48.7833 ] } },
{ "type": "Feature", "properties": { "name": "La Caouette", "code": "ARGO", "region": "Argonne" }, "geometry": { "type": "Point", "coordinates": [ 5.06667, 49.2 ] } },
{ "type": "Feature", "properties": { "name": "La Forêt de Hesse", "code": "ARGO", "region": "Argonne" }, "geometry": { "type": "Point", "coordinates": [ 5.11667, 49.1833 ] } },
{ "type": "Feature", "properties": { "name": "La Madeleine", "code": "EGTS", "region": "East Gaulish" }, "geometry": { "type": "Point", "coordinates": [ 6.25, 48.65 ] } },
{ "type": "Feature", "properties": { "name": "La Rioja", "code": "SPTS", "region": "Spanish" }, "geometry": { "type": "Point", "coordinates": [ -2.5, 42.3333 ] } },
{ "type": "Feature", "properties": { "name": "Lausanne", "code": "EGTS", "region": "East Gaulish" }, "geometry": { "type": "Point", "coordinates": [ 6.66667, 46.5333 ] } },
{ "type": "Feature", "properties": { "name": "Lavoye", "code": "ARGO", "region": "Argonne" }, "geometry": { "type": "Point", "coordinates": [ 5.13333, 49.0333 ] } },
{ "type": "Feature", "properties": { "name": "Lehen", "code": "EGTS", "region": "East Gaulish" }, "geometry": { "type": "Point", "coordinates": [ 7.8, 48.0166667 ] } },
{ "type": "Feature", "properties": { "name": "Le Rozier", "code": "SGTS", "region": "South Gaulish" }, "geometry": { "type": "Point", "coordinates": [ 3.21667, 44.1833 ] } },
{ "type": "Feature", "properties": { "name": "Les Allieux", "code": "ARGO", "region": "Argonne" }, "geometry": { "type": "Point", "coordinates": [ 5.06667, 49.2 ] } },
{ "type": "Feature", "properties": { "name": "Lezoux", "code": "CGTS", "region": "Central Gaulish" }, "geometry": { "type": "Point", "coordinates": [ 3.38333, 45.8333 ] } },
{ "type": "Feature", "properties": { "name": "Liédena", "code": "SPTS", "region": "Spanish" }, "geometry": { "type": "Point", "coordinates": [ -1.26667, 42.6167 ] } },
{ "type": "Feature", "properties": { "name": "Lubié", "code": "CGTS", "region": "Central Gaulish" }, "geometry": { "type": "Point", "coordinates": [ 3.63333, 46.25 ] } },
{ "type": "Feature", "properties": { "name": "Luxeuil", "code": "EGTS", "region": "East Gaulish" }, "geometry": { "type": "Point", "coordinates": [ 6.38333, 47.8167 ] } },
{ "type": "Feature", "properties": { "name": "Lyon", "code": "CGTS", "region": "Central Gaulish" }, "geometry": { "type": "Point", "coordinates": [ 4.85, 45.75 ] } },
{ "type": "Feature", "properties": { "name": "Málaga", "code": "SPTS", "region": "Spanish" }, "geometry": { "type": "Point", "coordinates": [ -4.41667, 36.7167 ] } },
{ "type": "Feature", "properties": { "name": "Manjarrés", "code": "SPTS", "region": "Spanish" }, "geometry": { "type": "Point", "coordinates": [ -2.66667, 42.3833 ] } },
{ "type": "Feature", "properties": { "name": "Martigny", "code": "EGTS", "region": "East Gaulish" }, "geometry": { "type": "Point", "coordinates": [ 7.08333, 46.0917 ] } },
{ "type": "Feature", "properties": { "name": "Martres-de-Veyre", "code": "CGTS", "region": "Central Gaulish" }, "geometry": { "type": "Point", "coordinates": [ 3.2, 45.6833 ] } },
{ "type": "Feature", "properties": { "name": "Metz", "code": "EGTS", "region": "East Gaulish" }, "geometry": { "type": "Point", "coordinates": [ 6.16667, 49.1333 ] } },
{ "type": "Feature", "properties": { "name": "Millau", "code": "SGTS", "region": "South Gaulish" }, "geometry": { "type": "Point", "coordinates": [ 3.08333, 44.1 ] } },
{ "type": "Feature", "properties": { "name": "Mittelbronn", "code": "EGTS", "region": "East Gaulish" }, "geometry": { "type": "Point", "coordinates": [ 7.21667, 48.7667 ] } },
{ "type": "Feature", "properties": { "name": "Montans", "code": "SGTS", "region": "South Gaulish" }, "geometry": { "type": "Point", "coordinates": [ 1.9, 43.8667 ] } },
{ "type": "Feature", "properties": { "name": "Montroig", "code": "SPTS", "region": "Spanish" }, "geometry": { "type": "Point", "coordinates": [ 0.966667, 41.0833 ] } },
{ "type": "Feature", "properties": { "name": "Mougon", "code": "CGTS", "region": "Central Gaulish" }, "geometry": { "type": "Point", "coordinates": [ 0.466667, 47.1 ] } },
{ "type": "Feature", "properties": { "name": "Narbonne", "code": "SGTS", "region": "South Gaulish" }, "geometry": { "type": "Point", "coordinates": [ 3.0, 43.1833 ] } },
{ "type": "Feature", "properties": { "name": "Nouâtre", "code": "CGTS", "region": "Central Gaulish" }, "geometry": { "type": "Point", "coordinates": [ 0.55, 47.05 ] } },
{ "type": "Feature", "properties": { "name": "Nürtingen", "code": "EGTS", "region": "East Gaulish" }, "geometry": { "type": "Point", "coordinates": [ 9.35, 48.6333333 ] } },
{ "type": "Feature", "properties": { "name": "Offemont", "code": "EGTS", "region": "East Gaulish" }, "geometry": { "type": "Point", "coordinates": [ 6.88333, 47.6667 ] } },
{ "type": "Feature", "properties": { "name": "Pamplona", "code": "SPTS", "region": "Spanish" }, "geometry": { "type": "Point", "coordinates": [ -1.63333, 42.8167 ] } },
{ "type": "Feature", "properties": { "name": "Pantoja", "code": "SPTS", "region": "Spanish" }, "geometry": { "type": "Point", "coordinates": [ -3.83333, 40.05 ] } },
{ "type": "Feature", "properties": { "name": "Pfaffenhofen", "code": "EGTS", "region": "East Gaulish" }, "geometry": { "type": "Point", "coordinates": [ 12.1333, 47.9 ] } },
{ "type": "Feature", "properties": { "name": "Pisa", "code": "ITTS", "region": "Italian" }, "geometry": { "type": "Point", "coordinates": [ 10.3833, 43.7167 ] } },
{ "type": "Feature", "properties": { "name": "Poitiers", "code": "CGTS", "region": "Central Gaulish" }, "geometry": { "type": "Point", "coordinates": [ 0.333333, 46.5833 ] } },
{ "type": "Feature", "properties": { "name": "Pont-des-Rèmes", "code": "ARGO", "region": "Argonne" }, "geometry": { "type": "Point", "coordinates": [ 4.95, 49.1333 ] } },
{ "type": "Feature", "properties": { "name": "Ponte a Buriano", "code": "ITTS", "region": "Italian" }, "geometry": { "type": "Point", "coordinates": [ 11.8, 43.507 ] } },
{ "type": "Feature", "properties": { "name": "Po Valley", "code": "ITTS", "region": "Italian" }, "geometry": { "type": "Point", "coordinates": [ 10.5, 45.0 ] } },
{ "type": "Feature", "properties": { "name": "Pozzuoli", "code": "ITTS", "region": "Italian" }, "geometry": { "type": "Point", "coordinates": [ 14.1167, 40.8167 ] } },
{ "type": "Feature", "properties": { "name": "Pradejón", "code": "SPTS", "region": "Spanish" }, "geometry": { "type": "Point", "coordinates": [ -2.06667, 42.3333 ] } },
{ "type": "Feature", "properties": { "name": "Pulborough", "code": "APTS", "region": "British" }, "geometry": { "type": "Point", "coordinates": [ -0.516667, 50.95 ] } },
{ "type": "Feature", "properties": { "name": "Reichshoffen", "code": "EGTS", "region": "East Gaulish" }, "geometry": { "type": "Point", "coordinates": [ 7.66667, 48.9333 ] } },
{ "type": "Feature", "properties": { "name": "Rheinzabern", "code": "EGTS", "region": "East Gaulish" }, "geometry": { "type": "Point", "coordinates": [ 8.28333, 49.1167 ] } },
{ "type": "Feature", "properties": { "name": "Rome", "code": "ITTS", "region": "Italian" }, "geometry": { "type": "Point", "coordinates": [ 12.4833, 41.9 ] } },
{ "type": "Feature", "properties": { "name": "Ruidoms", "code": "SPTS", "region": "Spanish" }, "geometry": { "type": "Point", "coordinates": [ 1.05, 41.1333 ] } },
{ "type": "Feature", "properties": { "name": "Sabadell", "code": "SPTS", "region": "Spanish" }, "geometry": { "type": "Point", "coordinates": [ 2.1, 41.55 ] } },
{ "type": "Feature", "properties": { "name": "Saint-Romain-en-Gal", "code": "CGTS", "region": "Central Gaulish" }, "geometry": { "type": "Point", "coordinates": [ 4.86667, 45.5333 ] } },
{ "type": "Feature", "properties": { "name": "Saint-Sauveur", "code": "SGTS", "region": "South Gaulish" }, "geometry": { "type": "Point", "coordinates": [ 1.91667, 43.9 ] } },
{ "type": "Feature", "properties": { "name": "Schiltigheim", "code": "", "region": "" }, "geometry": { "type": "Point", "coordinates": [ 7.75, 48.6 ] } },
{ "type": "Feature", "properties": { "name": "Schwabegg", "code": "EGTS", "region": "East Gaulish" }, "geometry": { "type": "Point", "coordinates": [ 10.6833, 48.1833 ] } },
{ "type": "Feature", "properties": { "name": "Schwabmünchen", "code": "EGTS", "region": "East Gaulish" }, "geometry": { "type": "Point", "coordinates": [ 10.75, 48.1833 ] } },
{ "type": "Feature", "properties": { "name": "Scoppieto", "code": "ITTS", "region": "Italian" }, "geometry": { "type": "Point", "coordinates": [ 12.2833333, 42.7166667 ] } },
{ "type": "Feature", "properties": { "name": "Sinzig", "code": "EGTS", "region": "East Gaulish" }, "geometry": { "type": "Point", "coordinates": [ 7.25, 50.55 ] } },
{ "type": "Feature", "properties": { "name": "Solsona", "code": "SPTS", "region": "Spanish" }, "geometry": { "type": "Point", "coordinates": [ 1.51667, 41.9833 ] } },
{ "type": "Feature", "properties": { "name": "Sotés", "code": "SPTS", "region": "Spanish" }, "geometry": { "type": "Point", "coordinates": [ -2.6054, 42.39076 ] } },
{ "type": "Feature", "properties": { "name": "Talavera de la Reina", "code": "SPTS", "region": "Spanish" }, "geometry": { "type": "Point", "coordinates": [ -4.83333, 39.95 ] } },
{ "type": "Feature", "properties": { "name": "Terre-Franche", "code": "CGTS", "region": "Central Gaulish" }, "geometry": { "type": "Point", "coordinates": [ 3.4, 46.1167 ] } },
{ "type": "Feature", "properties": { "name": "Tiermes", "code": "SPTS", "region": "Spanish" }, "geometry": { "type": "Point", "coordinates": [ -3.2, 41.36667 ] } },
{ "type": "Feature", "properties": { "name": "Torrita di Siena", "code": "ITTS", "region": "Italian" }, "geometry": { "type": "Point", "coordinates": [ 11.7666667, 43.1666667 ] } },
{ "type": "Feature", "properties": { "name": "Toulon-sur-Allier", "code": "CGTS", "region": "Central Gaulish" }, "geometry": { "type": "Point", "coordinates": [ 3.36667, 46.5167 ] } },
{ "type": "Feature", "properties": { "name": "Tricio", "code": "SPTS", "region": "Spanish" }, "geometry": { "type": "Point", "coordinates": [ -2.71667, 42.4 ] } },
{ "type": "Feature", "properties": { "name": "Trier", "code": "EGTS", "region": "East Gaulish" }, "geometry": { "type": "Point", "coordinates": [ 6.63333, 49.75 ] } },
{ "type": "Feature", "properties": { "name": "Valéry", "code": "SGTS", "region": "South Gaulish" }, "geometry": { "type": "Point", "coordinates": [ 1.96667, 43.7833 ] } },
{ "type": "Feature", "properties": { "name": "Vasanello", "code": "ITTS", "region": "Italian" }, "geometry": { "type": "Point", "coordinates": [ 12.35, 42.4167 ] } },
{ "type": "Feature", "properties": { "name": "Vauquois", "code": "ARGO", "region": "Argonne" }, "geometry": { "type": "Point", "coordinates": [ 5.06667, 49.2 ] } },
{ "type": "Feature", "properties": { "name": "Venosa", "code": "ITTS", "region": "Italian" }, "geometry": { "type": "Point", "coordinates": [ 15.8166667, 40.9666667 ] } },
{ "type": "Feature", "properties": { "name": "Vichy", "code": "CGTS", "region": "Central Gaulish" }, "geometry": { "type": "Point", "coordinates": [ 3.41667, 46.1167 ] } },
{ "type": "Feature", "properties": { "name": "Waiblingen­-Beinstein", "code": "EGTS", "region": "East Gaulish" }, "geometry": { "type": "Point", "coordinates": [ 9.3, 48.8333333 ] } },
{ "type": "Feature", "properties": { "name": "Westerndorf", "code": "EGTS", "region": "East Gaulish" }, "geometry": { "type": "Point", "coordinates": [ 12.1667, 47.85 ] } },
{ "type": "Feature", "properties": { "name": "Windisch", "code": "", "region": "" }, "geometry": { "type": "Point", "coordinates": [ 8.23333, 47.4667 ] } }
]
}
